 
[{"id":null,"name":"Confraria do Caf\u00e9","description":null,"image":"http:\/\/foursquare.com\/img\/categories\/food\/cafe.png","lat":-30.0226763,"long":-51.161354,"date":"Tue, 10 Aug 10 13:03:05 +0000","service":"Foursquare","user":null},{"id":null,"name":"Unibanco Arteplex","description":"Almas a venda","image":"http:\/\/foursquare.com\/img\/categories\/arts_entertainment\/movietheater.png","lat":-30.0222123462,"long":-51.1624288559,"date":"Thu, 05 Aug 10 22:45:43 +0000","service":"Foursquare","user":null},{"id":null,"name":"Lourival","description":"Primeiro @refilmagem meetup","image":"http:\/\/foursquare.com\/img\/categories\/nightlife\/default.png","lat":-30.0218013,"long":-51.1925168,"date":"Sat, 31 Jul 10 00:09:59 +0000","service":"Foursquare","user":null},{"id":null,"name":"Daimu","description":null,"image":"http:\/\/foursquare.com\/img\/categories\/food\/default.png","lat":-30.0238739,"long":-51.2021171,"date":"Fri, 30 Jul 10 16:40:33 +0000","service":"Foursquare","user":null},{"id":null,"name":"Beco Diskoclub","description":"Esperando pra ver qual eg do Social Media Day","image":"http:\/\/foursquare.com\/img\/categories\/nightlife\/danceparty.png","lat":-30.0214434,"long":-51.2020788,"date":"Wed, 28 Jul 10 22:53:21 +0000","service":"Foursquare","user":null},{"id":null,"name":"FISL - F\u00f3rum Internacional Software Livre","description":null,"image":"http:\/\/foursquare.com\/img\/categories\/building\/default.png","lat":-30.0559537,"long":-51.1692175,"date":"Fri, 23 Jul 10 13:00:48 +0000","service":"Foursquare","user":null},{"id":null,"name":"FISL - F\u00f3rum Internacional Software Livre","description":"@refilmagem @openjobs chegando para aprender e socializar um pouco","image":"http:\/\/foursquare.com\/img\/categories\/building\/default.png","lat":-30.0559537,"long":-51.1692175,"date":"Wed, 21 Jul 10 16:28:03 +0000","service":"Foursquare","user":null},{"id":null,"name":"Gramado","description":null,"image":null,"lat":-29.383109,"long":-50.87225,"date":"Thu, 15 Jul 10 16:50:07 +0000","service":"Foursquare","user":null},{"id":null,"name":"Restaurante Guimaraes","description":"Comendo um peixe na beira do rio em tramandai","image":"http:\/\/foursquare.com\/img\/categories\/food\/seafood.png","lat":-29.979455,"long":-50.134338,"date":"Sun, 11 Jul 10 15:15:49 +0000","service":"Foursquare","user":null},{"id":null,"name":"Petites D\u00e9lices Bourbon Country","description":"Hora do Cheese Cake","image":"http:\/\/foursquare.com\/img\/categories\/food\/coffeeshop.png","lat":-30.022642,"long":-51.162029,"date":"Sun, 04 Jul 10 18:46:50 +0000","service":"Foursquare","user":null},{"id":null,"name":"Dado Bier Restaurante","description":"Nos preparativos para o Battle of Photoshop...","image":"http:\/\/foursquare.com\/img\/categories\/food\/default.png","lat":-30.0226949,"long":-51.1617958,"date":"Sun, 04 Jul 10 15:00:57 +0000","service":"Foursquare","user":null},{"id":null,"name":"Shopping Bourbon Country","description":null,"image":"http:\/\/foursquare.com\/img\/categories\/shops\/default.png","lat":-30.0227093,"long":-51.1615501,"date":"Sun, 04 Jul 10 14:59:27 +0000","service":"Foursquare","user":null},{"id":null,"name":"Z cafe","description":"Tomando um trago com a galero q vai estar no Battle of Photoshop amanha, ja vi q a ressaca vai pegar, quem estiver por perto eh so aparecer","image":"http:\/\/foursquare.com\/img\/categories\/nightlife\/default.png","lat":-30.0246942,"long":-51.2031094,"date":"Sun, 04 Jul 10 00:24:55 +0000","service":"Foursquare","user":null},{"id":null,"name":"GNC Cinemas Iguatemi","description":"Eclipse","image":"http:\/\/foursquare.com\/img\/categories\/arts_entertainment\/movietheater.png","lat":-30.02523,"long":-51.160211,"date":"Fri, 02 Jul 10 16:41:13 +0000","service":"Foursquare","user":null},{"id":null,"name":"Iguatemi Porto Alegre","description":null,"image":"http:\/\/foursquare.com\/img\/categories\/shops\/default.png","lat":-30.0252592109,"long":-51.1623859406,"date":"Fri, 02 Jul 10 16:25:38 +0000","service":"Foursquare","user":null},{"id":null,"name":"Shopping Iguatemi","description":null,"image":"http:\/\/foursquare.com\/img\/categories\/shops\/default.png","lat":-30.0272656316,"long":-51.1628580093,"date":"Fri, 02 Jul 10 16:25:18 +0000","service":"Foursquare","user":null},{"id":null,"name":"Saik\u00f4","description":null,"image":"http:\/\/foursquare.com\/img\/categories\/food\/default.png","lat":-30.0375925,"long":-51.1877714,"date":"Thu, 01 Jul 10 00:51:36 +0000","service":"Foursquare","user":null},{"id":null,"name":"saiko","description":null,"image":null,"lat":-30.0375925,"long":-51.1877714,"date":"Thu, 01 Jul 10 00:06:09 +0000","service":"Foursquare","user":null},{"id":null,"name":"Applebee's","description":null,"image":"http:\/\/foursquare.com\/img\/categories\/food\/default.png","lat":-30.0829022,"long":-51.24684,"date":"Tue, 29 Jun 10 22:19:43 +0000","service":"Foursquare","user":null},{"id":null,"name":"Barra Shopping Sul","description":null,"image":"http:\/\/foursquare.com\/img\/categories\/shops\/food_grocery.png","lat":-30.0829022,"long":-51.24684,"date":"Tue, 29 Jun 10 22:19:00 +0000","service":"Foursquare","user":null}]